{
"type": "FeatureCollection",
"crs": { "type": "name", "properties": { "name": "urn:ogc:def:crs:OGC:1.3:CRS84" } },
                                                                                
"features": [
{ "type": "Feature", "properties": { "osm_id": "244080892", "name": "吉林市", "type": "city" }, "geometry": { "type": "Point", "coordinates": [ 126.54349360000001, 43.8357587 ] } },
{ "type": "Feature", "properties": { "osm_id": "244084984", "name": "丰满区", "type": "suburb" }, "geometry": { "type": "Point", "coordinates": [ 126.5322942, 43.7931498 ] } },
{ "type": "Feature", "properties": { "osm_id": "244084986", "name": "昌邑区", "type": "suburb" }, "geometry": { "type": "Point", "coordinates": [ 126.5753529, 43.8519807 ] } },
{ "type": "Feature", "properties": { "osm_id": "244084993", "name": "龙潭区", "type": "suburb" }, "geometry": { "type": "Point", "coordinates": [ 126.5563544, 43.9086134 ] } },
{ "type": "Feature", "properties": { "osm_id": "3962855313", "name": "三道岭子村", "type": "village" }, "geometry": { "type": "Point", "coordinates": [ 126.48463, 43.92036 ] } },
{ "type": "Feature", "properties": { "osm_id": "3962855316", "name": "三道沟", "type": "hamlet" }, "geometry": { "type": "Point", "coordinates": [ 126.64223, 43.91576 ] } },
{ "type": "Feature", "properties": { "osm_id": "3962855326", "name": "上八家子", "type": "hamlet" }, "geometry": { "type": "Point", "coordinates": [ 126.52876, 43.93062 ] } },
{ "type": "Feature", "properties": { "osm_id": "3962855328", "name": "下八家子", "type": "hamlet" }, "geometry": { "type": "Point", "coordinates": [ 126.50644, 43.93339 ] } },
{ "type": "Feature", "properties": { "osm_id": "3962855356", "name": "东荒山咀子", "type": "hamlet" }, "geometry": { "type": "Point", "coordinates": [ 126.65123, 43.89178 ] } },
{ "type": "Feature", "properties": { "osm_id": "3962856356", "name": "三家子村", "type": "village" }, "geometry": { "type": "Point", "coordinates": [ 126.67101, 43.82291 ] } },
{ "type": "Feature", "properties": { "osm_id": "3962856382", "name": "二道岭西沟", "type": "hamlet" }, "geometry": { "type": "Point", "coordinates": [ 126.48916, 43.89397 ] } },
{ "type": "Feature", "properties": { "osm_id": "3962856386", "name": "二道沟", "type": "hamlet" }, "geometry": { "type": "Point", "coordinates": [ 126.63774, 43.91319 ] } },
{ "type": "Feature", "properties": { "osm_id": "3962856470", "name": "北口钦", "type": "hamlet" }, "geometry": { "type": "Point", "coordinates": [ 126.50764, 43.94404 ] } },
{ "type": "Feature", "properties": { "osm_id": "3962856530", "name": "唐房村", "type": "village" }, "geometry": { "type": "Point", "coordinates": [ 126.66775, 43.92293 ] } },
{ "type": "Feature", "properties": { "osm_id": "3962856533", "name": "四合顶子下", "type": "hamlet" }, "geometry": { "type": "Point", "coordinates": [ 126.66551, 43.93976 ] } },
{ "type": "Feature", "properties": { "osm_id": "3962856535", "name": "四道沟", "type": "hamlet" }, "geometry": { "type": "Point", "coordinates": [ 126.64605, 43.91902 ] } },
{ "type": "Feature", "properties": { "osm_id": "3962856565", "name": "大砬子下沟", "type": "hamlet" }, "geometry": { "type": "Point", "coordinates": [ 126.67291, 43.93309 ] } },
{ "type": "Feature", "properties": { "osm_id": "3962856566", "name": "大砬子沟里", "type": "hamlet" }, "geometry": { "type": "Point", "coordinates": [ 126.62399, 43.92759 ] } },
{ "type": "Feature", "properties": { "osm_id": "3962856577", "name": "天太村", "type": "village" }, "geometry": { "type": "Point", "coordinates": [ 126.62442, 43.88873 ] } },
{ "type": "Feature", "properties": { "osm_id": "3962856592", "name": "头道沟", "type": "hamlet" }, "geometry": { "type": "Point", "coordinates": [ 126.62913, 43.91041 ] } },
{ "type": "Feature", "properties": { "osm_id": "3962856617", "name": "孟家屯西山", "type": "hamlet" }, "geometry": { "type": "Point", "coordinates": [ 126.5902, 43.94913 ] } },
{ "type": "Feature", "properties": { "osm_id": "3962856668", "name": "小茶棚西沟", "type": "hamlet" }, "geometry": { "type": "Point", "coordinates": [ 126.65469, 43.92458 ] } },
{ "type": "Feature", "properties": { "osm_id": "3962856686", "name": "山头子", "type": "hamlet" }, "geometry": { "type": "Point", "coordinates": [ 126.61632, 43.90871 ] } },
{ "type": "Feature", "properties": { "osm_id": "3962856694", "name": "岗家店", "type": "hamlet" }, "geometry": { "type": "Point", "coordinates": [ 126.66072, 43.91169 ] } },
{ "type": "Feature", "properties": { "osm_id": "3962856695", "name": "岗家店南沟", "type": "hamlet" }, "geometry": { "type": "Point", "coordinates": [ 126.66441, 43.90472 ] } },
{ "type": "Feature", "properties": { "osm_id": "3962856792", "name": "来发屯", "type": "hamlet" }, "geometry": { "type": "Point", "coordinates": [ 126.60998, 43.93499 ] } },
{ "type": "Feature", "properties": { "osm_id": "3962856828", "name": "棋盘村", "type": "village" }, "geometry": { "type": "Point", "coordinates": [ 126.55475, 43.94042 ] } },
{ "type": "Feature", "properties": { "osm_id": "3962856834", "name": "民主村", "type": "village" }, "geometry": { "type": "Point", "coordinates": [ 126.59639, 43.94174 ] } },
{ "type": "Feature", "properties": { "osm_id": "3962856840", "name": "江北乡", "type": "town" }, "geometry": { "type": "Point", "coordinates": [ 126.55222, 43.94149 ] } },
{ "type": "Feature", "properties": { "osm_id": "3962856894", "name": "石咀子东沟", "type": "hamlet" }, "geometry": { "type": "Point", "coordinates": [ 126.68482, 43.94681 ] } },
{ "type": "Feature", "properties": { "osm_id": "3962856895", "name": "石咀子村", "type": "village" }, "geometry": { "type": "Point", "coordinates": [ 126.67164, 43.94907 ] } },
{ "type": "Feature", "properties": { "osm_id": "3962856896", "name": "石咀子西沟", "type": "hamlet" }, "geometry": { "type": "Point", "coordinates": [ 126.66184, 43.94513 ] } },
{ "type": "Feature", "properties": { "osm_id": "3962856931", "name": "老黄家东沟", "type": "hamlet" }, "geometry": { "type": "Point", "coordinates": [ 126.68049, 43.93548 ] } },
{ "type": "Feature", "properties": { "osm_id": "3962856937", "name": "育林村", "type": "village" }, "geometry": { "type": "Point", "coordinates": [ 126.49214, 43.88659 ] } },
{ "type": "Feature", "properties": { "osm_id": "3962856959", "name": "荒山咀子东北沟", "type": "hamlet" }, "geometry": { "type": "Point", "coordinates": [ 126.64464, 43.89936 ] } },
{ "type": "Feature", "properties": { "osm_id": "3962856986", "name": "西崴子", "type": "hamlet" }, "geometry": { "type": "Point", "coordinates": [ 126.49425, 43.94736 ] } },
{ "type": "Feature", "properties": { "osm_id": "3962857019", "name": "郑大院", "type": "hamlet" }, "geometry": { "type": "Point", "coordinates": [ 126.68919, 43.9213 ] } },
{ "type": "Feature", "properties": { "osm_id": "3962857026", "name": "铁东村", "type": "village" }, "geometry": { "type": "Point", "coordinates": [ 126.62344, 43.9008 ] } },
{ "type": "Feature", "properties": { "osm_id": "3962857035", "name": "陶家沟", "type": "hamlet" }, "geometry": { "type": "Point", "coordinates": [ 126.61768, 43.94589 ] } },
{ "type": "Feature", "properties": { "osm_id": "3962857057", "name": "高家洼子村", "type": "village" }, "geometry": { "type": "Point", "coordinates": [ 126.68791, 43.91283 ] } },
{ "type": "Feature", "properties": { "osm_id": "3962857058", "name": "高家洼西沟", "type": "hamlet" }, "geometry": { "type": "Point", "coordinates": [ 126.68068, 43.90947 ] } },
{ "type": "Feature", "properties": { "osm_id": "3962857067", "name": "黄家大沟", "type": "hamlet" }, "geometry": { "type": "Point", "coordinates": [ 126.4867, 43.90766 ] } },
{ "type": "Feature", "properties": { "osm_id": "3962859287", "name": "三道沟", "type": "hamlet" }, "geometry": { "type": "Point", "coordinates": [ 126.61111, 43.80197 ] } },
{ "type": "Feature", "properties": { "osm_id": "3962859394", "name": "东兴", "type": "hamlet" }, "geometry": { "type": "Point", "coordinates": [ 126.60485, 43.81799 ] } },
{ "type": "Feature", "properties": { "osm_id": "3962859594", "name": "二道沟东", "type": "hamlet" }, "geometry": { "type": "Point", "coordinates": [ 126.691, 43.84207 ] } },
{ "type": "Feature", "properties": { "osm_id": "3962859600", "name": "二道沟村", "type": "village" }, "geometry": { "type": "Point", "coordinates": [ 126.66494, 43.84062 ] } },
{ "type": "Feature", "properties": { "osm_id": "3962859602", "name": "二道河子", "type": "hamlet" }, "geometry": { "type": "Point", "coordinates": [ 126.65997, 43.83349 ] } },
{ "type": "Feature", "properties": { "osm_id": "3962859666", "name": "伟光", "type": "hamlet" }, "geometry": { "type": "Point", "coordinates": [ 126.49831, 43.84852 ] } },
{ "type": "Feature", "properties": { "osm_id": "3962859719", "name": "八音多河", "type": "hamlet" }, "geometry": { "type": "Point", "coordinates": [ 126.64152, 43.83787 ] } },
{ "type": "Feature", "properties": { "osm_id": "3962859976", "name": "北甸子", "type": "hamlet" }, "geometry": { "type": "Point", "coordinates": [ 126.48615, 43.87073 ] } },
{ "type": "Feature", "properties": { "osm_id": "3962860159", "name": "吉兴村", "type": "village" }, "geometry": { "type": "Point", "coordinates": [ 126.50625, 43.80844 ] } },
{ "type": "Feature", "properties": { "osm_id": "3962860211", "name": "后石井沟", "type": "hamlet" }, "geometry": { "type": "Point", "coordinates": [ 126.64504, 43.81347 ] } },
{ "type": "Feature", "properties": { "osm_id": "3962860275", "name": "嘎宜河", "type": "hamlet" }, "geometry": { "type": "Point", "coordinates": [ 126.62023, 43.85709 ] } },
{ "type": "Feature", "properties": { "osm_id": "3962860284", "name": "四合村", "type": "village" }, "geometry": { "type": "Point", "coordinates": [ 126.51986, 43.79908 ] } },
{ "type": "Feature", "properties": { "osm_id": "3962860305", "name": "团山子岭后", "type": "hamlet" }, "geometry": { "type": "Point", "coordinates": [ 126.4853, 43.79902 ] } },
{ "type": "Feature", "properties": { "osm_id": "3962860316", "name": "土墙院", "type": "hamlet" }, "geometry": { "type": "Point", "coordinates": [ 126.69536, 43.87783 ] } },
{ "type": "Feature", "properties": { "osm_id": "3962860381", "name": "大崴子", "type": "hamlet" }, "geometry": { "type": "Point", "coordinates": [ 126.63004, 43.83178 ] } },
{ "type": "Feature", "properties": { "osm_id": "3962860862", "name": "小三家子", "type": "hamlet" }, "geometry": { "type": "Point", "coordinates": [ 126.65346, 43.82093 ] } },
{ "type": "Feature", "properties": { "osm_id": "3962860937", "name": "小崴子", "type": "hamlet" }, "geometry": { "type": "Point", "coordinates": [ 126.61852, 43.82467 ] } },
{ "type": "Feature", "properties": { "osm_id": "3962861108", "name": "干沟子", "type": "hamlet" }, "geometry": { "type": "Point", "coordinates": [ 126.51077, 43.79862 ] } },
{ "type": "Feature", "properties": { "osm_id": "3962861109", "name": "干沟子", "type": "hamlet" }, "geometry": { "type": "Point", "coordinates": [ 126.67247, 43.81583 ] } },
{ "type": "Feature", "properties": { "osm_id": "3962861147", "name": "建华村", "type": "village" }, "geometry": { "type": "Point", "coordinates": [ 126.58661, 43.83014 ] } },
{ "type": "Feature", "properties": { "osm_id": "3962861177", "name": "张庆", "type": "hamlet" }, "geometry": { "type": "Point", "coordinates": [ 126.48649, 43.88065 ] } },
{ "type": "Feature", "properties": { "osm_id": "3962861261", "name": "新兴村", "type": "village" }, "geometry": { "type": "Point", "coordinates": [ 126.49198, 43.79908 ] } },
{ "type": "Feature", "properties": { "osm_id": "3962861305", "name": "新房子", "type": "hamlet" }, "geometry": { "type": "Point", "coordinates": [ 126.68582, 43.83632 ] } },
{ "type": "Feature", "properties": { "osm_id": "3962861379", "name": "晓光村", "type": "village" }, "geometry": { "type": "Point", "coordinates": [ 126.49111, 43.86018 ] } },
{ "type": "Feature", "properties": { "osm_id": "3962861466", "name": "杨木林南沟", "type": "hamlet" }, "geometry": { "type": "Point", "coordinates": [ 126.63013, 43.87481 ] } },
{ "type": "Feature", "properties": { "osm_id": "3962861537", "name": "桥头", "type": "hamlet" }, "geometry": { "type": "Point", "coordinates": [ 126.59747, 43.85685 ] } },
{ "type": "Feature", "properties": { "osm_id": "3962861581", "name": "榆树村", "type": "village" }, "geometry": { "type": "Point", "coordinates": [ 126.50974, 43.79076 ] } },
{ "type": "Feature", "properties": { "osm_id": "3962861584", "name": "榆树沟子村", "type": "village" }, "geometry": { "type": "Point", "coordinates": [ 126.68063, 43.86588 ] } },
{ "type": "Feature", "properties": { "osm_id": "3962861592", "name": "欢喜村", "type": "village" }, "geometry": { "type": "Point", "coordinates": [ 126.48943, 43.82707 ] } },
{ "type": "Feature", "properties": { "osm_id": "3962861599", "name": "毛子桥", "type": "hamlet" }, "geometry": { "type": "Point", "coordinates": [ 126.60077, 43.82894 ] } },
{ "type": "Feature", "properties": { "osm_id": "3962861666", "name": "江南乡", "type": "town" }, "geometry": { "type": "Point", "coordinates": [ 126.55332, 43.82268 ] } },
{ "type": "Feature", "properties": { "osm_id": "3962861746", "name": "温德河村", "type": "village" }, "geometry": { "type": "Point", "coordinates": [ 126.533, 43.80216 ] } },
{ "type": "Feature", "properties": { "osm_id": "3962861869", "name": "白菜沟", "type": "hamlet" }, "geometry": { "type": "Point", "coordinates": [ 126.68453, 43.85814 ] } },
{ "type": "Feature", "properties": { "osm_id": "3962861875", "name": "石井沟村", "type": "village" }, "geometry": { "type": "Point", "coordinates": [ 126.63772, 43.79631 ] } },
{ "type": "Feature", "properties": { "osm_id": "3962862216", "name": "裕民村", "type": "village" }, "geometry": { "type": "Point", "coordinates": [ 126.62657, 43.8503 ] } }
]
}
